[
  {
    "type": "location",
    "location": "Vienna",
    "postalCode": "1010",
    "address": "Stephansplatz 1",
    "img": "../img/../img/vienna-933500_1280.jpg",
    "country": "Austria",
    "description": "Baroque streetscapes and imperial palaces set the stage for Vienna's artistic and musical\nmasterpieces alongside its coffee-house culture and vibrant epicurean and design scenes.",
    "createdDate": "2020-05-13",
    "createdTime": "14:35:00"
  },
  {
    "type": "restaurant",
    "name": "Swing Kitchen",
    "category": "Burgers",
    "location": "Vienna",
    "postalCode": "1010",
    "address": "Schwedenplatz 3-4",
    "img": "../img/swingkitchen.jpg",
    "country": "Austria",
    "url": "https://www.swingkitchen.com/",
    "telephone": "+43 680 5678 4321",
    "createdDate": "2020-05-14",
    "createdTime": "12:30:00"
  },
  {
    "type": "restaurant",
    "name": "Veganista",
    "category": "Ice Cream",
    "location": "Vienna",
    "postalCode": "1010",
    "address": "Tuchlauben 12",
    "img": "../img/veganista.jpg",
    "country": "Austria",
    "url": "https://www.veganista.at/",
    "telephone": "+43 680 5678 4321",
    "createdDate": "2020-05-13",
    "createdTime": "15:03:00"
  },
  {
    "type": "restaurant",
    "name": "Jonathan und Sieglinde",
    "category": "traditional",
    "location": "Vienna",
    "postalCode": "1010",
    "address": "Riemergasse 16",
    "img": "../img/jonathan-sieglinde.jpg",
    "country": "Austria",
    "url": "https://jonathan-sieglinde.com/",
    "telephone": "+43 1 513 1710",
    "createdDate": "2020-05-13",
    "createdTime": "20:45:00"
  },
  {
    "type": "restaurant",
    "name": "Tian",
    "category": "fine cuisine",
    "location": "Vienna",
    "postalCode": "1010",
    "address": "Himmelpfortgasse 23",
    "img": "../img/tian.jpg",
    "country": "Austria",
    "url": "https://www.tian-restaurant.com/wien/",
    "telephone": "+43 1 890 4665",
    "createdDate": "2020-05-12",
    "createdTime": "14:35:00"
  },
  {
    "type": "event",
    "name": "Kino am Dach",
    "hrfDate": "18.Juni - 27.September 2020",
    "hrfTime": "21:00 Uhr",
    "price": "10€",
    "location": "Vienna",
    "postalCode": "1070",
    "address": "Urban-Loritz-Platz 2",
    "img": "../img/kinoamdach.jpg",
    "country": "Austria",
    "url": "https://www.kinoamdach.at/",
    "createdDate": "2020-05-13",
    "createdTime": "16:00:00"
  },
  {
    "type": "event",
    "name": "Familien Ausstellung",
    "hrfDate": "20. Juni 2020",
    "hrfTime": "14:00 Uhr",
    "price": "Free",
    "location": "Vienna",
    "postalCode": "1010",
    "address": "Stephansplatz 6",
    "img": "../img/dommuseum.jpg",
    "country": "Austria",
    "url": "https://www.dommuseum.at/",
    "createdDate": "2020-06-13",
    "createdTime": "12:11:00"
  },
  {
    "type": "event",
    "name": "20 Jahre HdM",
    "hrfDate": "21.Juni 2020",
    "hrfTime": "14:00 Uhr",
    "price": "Free",
    "location": "Vienna",
    "postalCode": "1010",
    "address": "Seilerstätte 30",
    "img": "../img/hausdermusik.jpg",
    "country": "Austria",
    "url": "https://hausdermusik.com/",
    "createdDate": "2020-06-11",
    "createdTime": "14:00:00"
  },
  {
    "type": "event",
    "name": "Mittelalterfest",
    "hrfDate": "18.September - 20.September 2020",
    "hrfTime": "9:00 - 22:00",
    "price": "Free",
    "location": "Vienna",
    "postalCode": "1110",
    "address": "Otmar-Brix-Gasse 1",
    "img": "../img/mittelaltermarkt.jpg",
    "country": "Austria",
    "url": "https://www.schlossneugebeude.at/",
    "createdDate": "2020-05-18",
    "createdTime": "17:14:00"
  },
  {
    "type": "location",
    "location": "Stockholm",
    "postalCode": "100 12",
    "address": "Djurgårdsvägen 2",
    "img": "../img/stockholm-1522572_1920.jpg",
    "country": "Sweden",
    "description": "Stockholm is known as one of the most inclusive and welcoming cities in the world. Its contemporary, urban appeal is balanced with centuries-old history and closeness to nature. As for the things to do in Stockholm, the list is endless.",
    "createdDate": "2020-07-12",
    "createdTime": "18:35:00"
  },
  {
    "type": "restaurant",
    "name": "Växthuset",
    "category": "Fusion",
    "location": "Stockholm",
    "postalCode": "118 60",
    "address": "Hammarby Slussväg 2",
    "img": "../img/växthuset.jpg",
    "country": "Sweden",
    "url": "https://www.restaurangvaxthuset.se/en/",
    "telephone": "+46 8-644 20 33",
    "createdDate": "2020-02-20",
    "createdTime": "10:30:00"
  },
  {
    "type": "restaurant",
    "name": "Hermans",
    "category": "International",
    "location": "Stockholm",
    "postalCode": "116 28",
    "address": "Fjallgatan 23 B",
    "img": "../img/hermans.jpg",
    "country": "Sweden",
    "url": "https://hermans.se/",
    "telephone": " +46 8 643 94 80",
    "createdDate": "2020-02-19",
    "createdTime": "11:45:00"
  },
  {
    "type": "restaurant",
    "name": "Sattva Naturbageriet",
    "category": "Bakery",
    "location": "Stockholm",
    "postalCode": "111 27",
    "address": "Stora Nygatan 6",
    "img": "../img/sattva.jpg",
    "country": "Sweden",
    "url": "https://www.facebook.com/Naturbageriet-Sattva-1984459591632402/",
    "telephone": "+46-86699393",
    "createdDate": "2020-02-19",
    "createdTime": "18:09:00"
  },
  {
    "type": "restaurant",
    "name": "FERN & FIKA",
    "category": "Café",
    "location": "Stockholm",
    "postalCode": "117 33",
    "address": "Langholmsgatan 11",
    "img": "../img/fernfika.jpeg",
    "country": "Sweden",
    "url": "https://www.fernandfika.com/",
    "telephone": "+46-812057305",
    "createdDate": "2020-02-20",
    "createdTime": "09:00:00"
  },
  {
    "type": "event",
    "name": "100 Point Challenge",
    "hrfDate": "daily",
    "hrfTime": "10:00 Uhr",
    "price": "37€",
    "location": "Stockholm",
    "postalCode": "11129",
    "address": "Svartmangatan 18",
    "img": "../img/100point.jpg",
    "country": "Sweden",
    "url": "https://www.100pointchallenge.com/stockholm-public-challenge",
    "createdDate": "2020-02-20",
    "createdTime": "14:00:00"
  },
  {
    "type": "event",
    "name": "Magical Pattern",
    "hrfDate": "Thursday-Sunday",
    "hrfTime": "11:00 -17:00",
    "price": "Free",
    "location": "Stockholm",
    "postalCode": "111 52",
    "address": "Fredsgatan 2",
    "img": "../img/magicalpattern.jpg",
    "country": "Sweden",
    "url": "www.varldskulturmuseerna.se",
    "createdDate": "2020-02-19",
    "createdTime": "11:12:00"
  },
  {
    "type": "event",
    "name": "Midsummer at Skansen",
    "hrfDate": "19.- 21.June",
    "hrfTime": "10:00 - 16:00",
    "price": "25€",
    "location": "Stockholm",
    "postalCode": "11521",
    "address": "Djurgårdsslätten 49-51",
    "img": "../img/midsummer.jpg",
    "country": "Sweden",
    "url": "www.skansen.se/sv/midsommar",
    "createdDate": "2020-05-13",
    "createdTime": "14:35:00"
  },
  {
    "type": "event",
    "name": "Play Beyond Play",
    "hrfDate": "22.June - 31.August 2020",
    "hrfTime": "11:00 - 16:00",
    "price": "15€",
    "location": "Stockholm",
    "postalCode": "115 27",
    "address": "Museivägen 7",
    "img": "../img/playbeyondplay.jpg",
    "country": "Sweden",
    "url": "www.tekniskamuseet.se/en/discover/exhibitions/play-beyond-play",
    "createdDate": "2020-05-20",
    "createdTime": "16:00:00"
  },{
  "type": "location",
  "location": "Antibes",
  "postalCode": "06600",
  "address": "Place du General de Gaulle 1",
  "img": "../img/antibes.jpg",
  "country": "France",
  "description": "With its boat-bedecked port, 16th-century ramparts and narrow cobblestone streets festooned with flowers, it's little wonder that lovely Antibes has stolen the hearts of so many artists and writers: they include Graham Greene, Max Ernst and Picasso, who featured the town in many paintings and now has a museum dedicated to him here.",
  "createdDate": "2019-08-10",
  "createdTime": "17:00:00"
},
  {
    "type": "restaurant",
    "name": "Graze",
    "category": "California cuisine",
    "location": "Antibes",
    "postalCode": "06600",
    "address": "20 rue des Casemates",
    "img": "../img/graze.jpeg",
    "country": "France",
    "url": "https://grazecafe.fr",
    "telephone": "+33-489825173",
    "createdDate": "2019-08-10",
    "createdTime": "18:35:00"
  },
  {
    "type": "restaurant",
    "name": "SpicyLia",
    "category": "Provençal",
    "location": "Antibes",
    "postalCode": "06600",
    "address": "2208 Route de Grasse",
    "img": "../img/spicylia.png",
    "country": "France",
    "url": "spicylia.com",
    "telephone": " +33-648620182",
    "createdDate": "2019-08-13",
    "createdTime": "12:00:00"
  },
  {
    "type": "restaurant",
    "name": "Not Dog",
    "category": "Hot Dogs",
    "location": "Antibes",
    "postalCode": "06000",
    "address": "18 Bd Jean Jaures",
    "img": "../img/notdog.jpg",
    "country": "France",
    "url": "https://www.facebook.com/notdog.nice",
    "telephone": "+33-664422537",
    "createdDate": "2019-08-12",
    "createdTime": "14:35:00"
  },
  {
    "type": "restaurant",
    "name": "Utopia",
    "category": "Italian",
    "location": "Antibes",
    "postalCode": "06300",
    "address": "35 Rue Bonaparte",
    "img": "../img/utopia.jpg",
    "country": "France",
    "url": "http://facebook.com/Utopia-Restaurant-v%C3%A8gitalien-613813139082818",
    "telephone": "+33-753301145",
    "createdDate": "2019-08-11",
    "createdTime": "16:45:00"
  },
  {
    "type": "event",
    "name": "Marche Provencal",
    "hrfDate": "19.June - 6.October",
    "hrfTime": "6:00 - 13:00",
    "price": "free",
    "location": "Antibes",
    "postalCode": "06600",
    "address": "Cours Masséna",
    "img": "../img/marcheprovoncale.jpg",
    "country": "France",
    "url": "https://www.antibesjuanlespins.com/a-voir-a-faire/les-marches",
    "createdDate": "2020-05-06",
    "createdTime": "14:35:00"
  },
  {
    "type": "event",
    "name": "Antibes Art Fair",
    "hrfDate": "19.June - 22.June",
    "hrfTime": "10:30 -19:30",
    "price": "10€",
    "location": "Antibes",
    "postalCode": "06600",
    "address": "5 avenue Paul Arène",
    "img": "../img/artfair.jpg",
    "country": "France",
    "url": "http://www.salon-antiquaires-antibes.com/",
    "createdDate": "2020-06-01",
    "createdTime": "11:00:00"
  },
  {
    "type": "event",
    "name": "Jazz à Juan",
    "hrfDate": "9.- 22.July",
    "hrfTime": "whole evening",
    "price": "free",
    "location": "Antibes",
    "postalCode": "06160",
    "address": "60, chemin des Sables",
    "img": "../img/jazz.jpg",
    "country": "France",
    "url": "https://www.jazzajuan.com/",
    "createdDate": "2020-05-10",
    "createdTime": "18:00:00"
  },
  {
    "type": "event",
    "name": "LARS FREDERIKSON",
    "hrfDate": "16.November.2019 - 30.June.2020",
    "hrfTime": "10:00 - 18:00",
    "price": "10€",
    "location": "Antibes",
    "postalCode": "06300",
    "address": "Place Yves Klein",
    "img": "../img/lars.jpg",
    "country": "France",
    "url": "http://www.mamac-nice.org/",
    "createdDate": "2019-08-11",
    "createdTime": "14:45:00"
  }
]